{
    "type": "FeatureCollection",
    "features": [
        {
            "type": "Feature",
            "geometry": {
                "type": "Point",
                "coordinates": [
                    8.77556,
                    41.93,
                    0
                ]
            },
            "properties": {
                "name": "[Tir] 2A Ajaccio (CFCA de Carbuccia)"
            }
        },
        {
            "type": "Feature",
            "geometry": {
                "type": "Point",
                "coordinates": [
                    8.77949,
                    41.93269,
                    0
                ]
            },
            "properties": {
                "name": "[Tir] 2A Ajaccio (C.A.T.C.)"
            }
        },
        {
            "type": "Feature",
            "geometry": {
                "type": "Point",
                "coordinates": [
                    2.66052,
                    42.47875,
                    0
                ]
            },
            "properties": {
                "name": "[Tir] 66 Amelie les Bains (SVT)"
            }
        },
        {
            "type": "Feature",
            "geometry": {
                "type": "Point",
                "coordinates": [
                    1.87556,
                    42.90917,
                    0
                ]
            },
            "properties": {
                "name": "[Tir] 09 Lavelanet (Sté de tir du pays d'Olmes)"
            }
        },
        {
            "type": "Feature",
            "geometry": {
                "type": "Point",
                "coordinates": [
                    1.00926,
                    43.03125,
                    0
                ]
            },
            "properties": {
                "name": "[Tir] 09 St Girons (Sté de tir St Girons Prat-Bonrepaux)"
            }
        },
        {
            "type": "Feature",
            "geometry": {
                "type": "Point",
                "coordinates": [
                    -0.07557,
                    43.09263,
                    0
                ]
            },
            "properties": {
                "name": "[Tir] 65 Lourdes (Isards de Bigorre)"
            }
        },
        {
            "type": "Feature",
            "geometry": {
                "type": "Point",
                "coordinates": [
                    0.705,
                    43.09917,
                    0
                ]
            },
            "properties": {
                "name": "[Tir] 31 Saint Gaudens (Club de Tir Saint Gaudinois)"
            }
        },
        {
            "type": "Feature",
            "geometry": {
                "type": "Point",
                "coordinates": [
                    6.10368,
                    43.107,
                    0
                ]
            },
            "properties": {
                "name": "[Tir] 83 Hyères (Sté de tir d'Hyères)"
            }
        },
        {
            "type": "Feature",
            "geometry": {
                "type": "Point",
                "coordinates": [
                    6.0283,
                    43.13352,
                    0
                ]
            },
            "properties": {
                "name": "[Tir] 83 Toulon (Sté de Tir de Toulon)"
            }
        },
        {
            "type": "Feature",
            "geometry": {
                "type": "Point",
                "coordinates": [
                    6.32693,
                    43.13555,
                    0
                ]
            },
            "properties": {
                "name": "[Tir] 83 Bormes les Mimosas (Sté de tir sportif Lavandou Bormes)"
            }
        },
        {
            "type": "Feature",
            "geometry": {
                "type": "Point",
                "coordinates": [
                    1.61389,
                    43.13944,
                    0
                ]
            },
            "properties": {
                "name": "[Tir] 09 Pamiers (Sté de tir de Pamiers)"
            }
        },
        {
            "type": "Feature",
            "geometry": {
                "type": "Point",
                "coordinates": [
                    2.98032,
                    43.14791,
                    0
                ]
            },
            "properties": {
                "name": "[Tir] 11 Narbonne (Sté de Tir de Narbonne)"
            }
        },
        {
            "type": "Feature",
            "geometry": {
                "type": "Point",
                "coordinates": [
                    5.5888,
                    43.18865,
                    0
                ]
            },
            "properties": {
                "name": "[Tir] 13 La Ciotat (Tir Club Ciotaden)"
            }
        },
        {
            "type": "Feature",
            "geometry": {
                "type": "Point",
                "coordinates": [
                    6.39504,
                    43.19761,
                    0
                ]
            },
            "properties": {
                "name": "[Tir] 83 La Mole (Sté de tir sportif des Maures)"
            }
        },
        {
            "type": "Feature",
            "geometry": {
                "type": "Point",
                "coordinates": [
                    2.73249,
                    43.19967,
                    0
                ]
            },
            "properties": {
                "name": "[Tir] 11 Lezignan-Corbières (La Patriote)"
            }
        },
        {
            "type": "Feature",
            "geometry": {
                "type": "Point",
                "coordinates": [
                    0.04146,
                    43.22443,
                    0
                ]
            },
            "properties": {
                "name": "[Tir] 65 Tarbes (Les Cigognes)"
            }
        },
        {
            "type": "Feature",
            "geometry": {
                "type": "Point",
                "coordinates": [
                    0.03861,
                    43.22472,
                    0
                ]
            },
            "properties": {
                "name": "[Tir] 65 Tarbes (Cible Tarbes Pyrénées)"
            }
        },
        {
            "type": "Feature",
            "geometry": {
                "type": "Point",
                "coordinates": [
                    2.36976,
                    43.2379,
                    0
                ]
            },
            "properties": {
                "name": "[Tir] 11 Carcassonne (Carcassonnaise de tir)"
            }
        },
        {
            "type": "Feature",
            "geometry": {
                "type": "Point",
                "coordinates": [
                    -1.6466,
                    43.37951,
                    0
                ]
            },
            "properties": {
                "name": "[Tir] 64 Ciboure (Sté de tir de Ciboure)>0559472200"
            }
        },
        {
            "type": "Feature",
            "geometry": {
                "type": "Point",
                "coordinates": [
                    -0.6412,
                    43.43632,
                    0
                ]
            },
            "properties": {
                "name": "[Tir] 64 Mont (Les francs tireurs de Mont)"
            }
        },
        {
            "type": "Feature",
            "geometry": {
                "type": "Point",
                "coordinates": [
                    -0.42833,
                    43.30583,
                    0
                ]
            },
            "properties": {
                "name": "[Tir] 64 Lons (Sté de Tir de Lons)"
            }
        },
        {
            "type": "Feature",
            "geometry": {
                "type": "Point",
                "coordinates": [
                    1.30972,
                    43.40277,
                    0
                ]
            },
            "properties": {
                "name": "[Tir] 31 Muret (stand de tir de Muret)"
            }
        },
        {
            "type": "Feature",
            "geometry": {
                "type": "Point",
                "coordinates": [
                    1.59101,
                    43.45576,
                    0
                ]
            },
            "properties": {
                "name": "[Tir] 31 Montgiscard (S.T.V.H.)"
            }
        },
        {
            "type": "Feature",
            "geometry": {
                "type": "Point",
                "coordinates": [
                    1.95318,
                    43.30622,
                    0
                ]
            },
            "properties": {
                "name": "[Tir] 11 Castelnaudary (Sté de Tir de Castelnaudary)"
            }
        },
        {
            "type": "Feature",
            "geometry": {
                "type": "Point",
                "coordinates": [
                    3.2512,
                    43.3249,
                    0
                ]
            },
            "properties": {
                "name": "[Tir] 34 Béziers (Sté de Tir de Béziers)"
            }
        },
        {
            "type": "Feature",
            "geometry": {
                "type": "Point",
                "coordinates": [
                    3.65621,
                    43.40035,
                    0
                ]
            },
            "properties": {
                "name": "[Tir] 34 Sète (Stand de Tir Municipal du Pont Levis)"
            }
        },
        {
            "type": "Feature",
            "geometry": {
                "type": "Point",
                "coordinates": [
                    3.69297,
                    43.4664,
                    0
                ]
            },
            "properties": {
                "name": "[Tir] 34 Sète-Balaruc (S.T.O.)"
            }
        },
        {
            "type": "Feature",
            "geometry": {
                "type": "Point",
                "coordinates": [
                    4.94968,
                    43.46981,
                    0
                ]
            },
            "properties": {
                "name": "[Tir] 13 Fos sur mer (Sté de tir Istres Fos)"
            }
        },
        {
            "type": "Feature",
            "geometry": {
                "type": "Point",
                "coordinates": [
                    5.03621,
                    43.39526,
                    0
                ]
            },
            "properties": {
                "name": "[Tir] 13 Martigues (Stand de Tir Olympique de Martigues)"
            }
        },
        {
            "type": "Feature",
            "geometry": {
                "type": "Point",
                "coordinates": [
                    5.19009,
                    43.40938,
                    0
                ]
            },
            "properties": {
                "name": "[Tir] 13 Marignane (CMS tir Marignane)"
            }
        },
        {
            "type": "Feature",
            "geometry": {
                "type": "Point",
                "coordinates": [
                    5.21139,
                    43.405,
                    0
                ]
            },
            "properties": {
                "name": "[Tir] 13 Marignane (C.R.E.T.E.S. Marignane)"
            }
        },
        {
            "type": "Feature",
            "geometry": {
                "type": "Point",
                "coordinates": [
                    5.2382,
                    43.4704,
                    0
                ]
            },
            "properties": {
                "name": "[Tir] 13 Vitrolles (Sté de Tir la Plantade)"
            }
        },
        {
            "type": "Feature",
            "geometry": {
                "type": "Point",
                "coordinates": [
                    5.46824,
                    43.32064,
                    0
                ]
            },
            "properties": {
                "name": "[Tir] 13 Allauch (Club de Tir Provence Nemrod)"
            }
        },
        {
            "type": "Feature",
            "geometry": {
                "type": "Point",
                "coordinates": [
                    5.4846,
                    43.37219,
                    0
                ]
            },
            "properties": {
                "name": "[Tir] 13 Allauch (Stand des Escombes)"
            }
        },
        {
            "type": "Feature",
            "geometry": {
                "type": "Point",
                "coordinates": [
                    5.48471,
                    43.27855,
                    0
                ]
            },
            "properties": {
                "name": "[Tir] 13 Marseille (Sté des Tireurs et Arquebusiers de la Ba"
            }
        },
        {
            "type": "Feature",
            "geometry": {
                "type": "Point",
                "coordinates": [
                    5.60331,
                    43.28719,
                    0
                ]
            },
            "properties": {
                "name": "[Tir] 13 Aubagne (école de Tir du Pays d'Aubagne)"
            }
        },
        {
            "type": "Feature",
            "geometry": {
                "type": "Point",
                "coordinates": [
                    5.91972,
                    43.28833,
                    0
                ]
            },
            "properties": {
                "name": "[Tir] 83 Signes (Var pistol shooting)"
            }
        },
        {
            "type": "Feature",
            "geometry": {
                "type": "Point",
                "coordinates": [
                    6.55518,
                    43.23981,
                    0
                ]
            },
            "properties": {
                "name": "[Tir] 83 Cogolin (Club de tir cogolinois)"
            }
        },
        {
            "type": "Feature",
            "geometry": {
                "type": "Point",
                "coordinates": [
                    -1.27474,
                    43.64278,
                    0
                ]
            },
            "properties": {
                "name": "[Tir] 40 St Jean de Marsacq (Tir Sportif Cote d'Argent)"
            }
        },
        {
            "type": "Feature",
            "geometry": {
                "type": "Point",
                "coordinates": [
                    0.64367,
                    43.62752,
                    0
                ]
            },
            "properties": {
                "name": "[Tir] 32 Auch (Cercle des tireurs Gascons)"
            }
        },
        {
            "type": "Feature",
            "geometry": {
                "type": "Point",
                "coordinates": [
                    1.0525,
                    43.88611,
                    0
                ]
            },
            "properties": {
                "name": "[Tir] 32 Caussens (Tireurs et arquebusiers de l'Armagnac)"
            }
        },
        {
            "type": "Feature",
            "geometry": {
                "type": "Point",
                "coordinates": [
                    1.16437,
                    43.62287,
                    0
                ]
            },
            "properties": {
                "name": "[Tir] 31 Mérenvielle (38 T.S.M.)"
            }
        },
        {
            "type": "Feature",
            "geometry": {
                "type": "Point",
                "coordinates": [
                    1.37171,
                    43.68171,
                    0
                ]
            },
            "properties": {
                "name": "[Tir] 31 Fenouillet (Tir Sportif Fenouillet)"
            }
        },
        {
            "type": "Feature",
            "geometry": {
                "type": "Point",
                "coordinates": [
                    1.39781,
                    43.66039,
                    0
                ]
            },
            "properties": {
                "name": "[Tir] 31 Blagnac (Cible Tir Blagnacais)"
            }
        },
        {
            "type": "Feature",
            "geometry": {
                "type": "Point",
                "coordinates": [
                    1.49055,
                    43.60497,
                    0
                ]
            },
            "properties": {
                "name": "[Tir] 31 Toulouse (Club de tir Toulousain)"
            }
        },
        {
            "type": "Feature",
            "geometry": {
                "type": "Point",
                "coordinates": [
                    1.97138,
                    43.72055,
                    0
                ]
            },
            "properties": {
                "name": "[Tir] 81 Graulhet (Club de tir Graulhetois)"
            }
        },
        {
            "type": "Feature",
            "geometry": {
                "type": "Point",
                "coordinates": [
                    2.1575,
                    43.5911,
                    0
                ]
            },
            "properties": {
                "name": "[Tir] 81 Saix (Asso. sportive Pierre Fabre Tir)"
            }
        },
        {
            "type": "Feature",
            "geometry": {
                "type": "Point",
                "coordinates": [
                    2.35349,
                    43.75202,
                    0
                ]
            },
            "properties": {
                "name": "[Tir] 11 Montredon (A.M.T.A.C.A.)"
            }
        },
        {
            "type": "Feature",
            "geometry": {
                "type": "Point",
                "coordinates": [
                    3.76252,
                    43.64224,
                    0
                ]
            },
            "properties": {
                "name": "[Tir] 34 Grabels (Stand de Tir occitan)"
            }
        },
        {
            "type": "Feature",
            "geometry": {
                "type": "Point",
                "coordinates": [
                    4.12758,
                    43.50344,
                    0
                ]
            },
            "properties": {
                "name": "[Tir] 30 Le Grau du Roi  (T.S.G.)"
            }
        },
        {
            "type": "Feature",
            "geometry": {
                "type": "Point",
                "coordinates": [
                    4.15732,
                    43.68689,
                    0
                ]
            },
            "properties": {
                "name": "[Tir] 34 Lunel (Entente Sportive des Tireurs Pescalune)"
            }
        },
        {
            "type": "Feature",
            "geometry": {
                "type": "Point",
                "coordinates": [
                    4.26429,
                    43.83587,
                    0
                ]
            },
            "properties": {
                "name": "[Tir] 30 Caveirac (St Roch)"
            }
        },
        {
            "type": "Feature",
            "geometry": {
                "type": "Point",
                "coordinates": [
                    4.2672,
                    43.80121,
                    0
                ]
            },
            "properties": {
                "name": "[Tir] 30 Langlade (Stand Yves Boissier)"
            }
        },
        {
            "type": "Feature",
            "geometry": {
                "type": "Point",
                "coordinates": [
                    4.29332,
                    43.69525,
                    0
                ]
            },
            "properties": {
                "name": "[Tir] 30 Vauvert (S.V.T.)"
            }
        },
        {
            "type": "Feature",
            "geometry": {
                "type": "Point",
                "coordinates": [
                    4.34764,
                    43.79226,
                    0
                ]
            },
            "properties": {
                "name": "[Tir] 30 Nimes (S.N.T.)"
            }
        },
        {
            "type": "Feature",
            "geometry": {
                "type": "Point",
                "coordinates": [
                    4.35389,
                    43.87803,
                    0
                ]
            },
            "properties": {
                "name": "[Tir] 30 Nimes (Tholozan)"
            }
        },
        {
            "type": "Feature",
            "geometry": {
                "type": "Point",
                "coordinates": [
                    4.40372,
                    43.82671,
                    0
                ]
            },
            "properties": {
                "name": "[Tir] 30 Nimes (Gaz-elec Tir)"
            }
        },
        {
            "type": "Feature",
            "geometry": {
                "type": "Point",
                "coordinates": [
                    4.66205,
                    43.66117,
                    0
                ]
            },
            "properties": {
                "name": "[Tir] 13 Arles (Club Arlésien de tir)"
            }
        },
        {
            "type": "Feature",
            "geometry": {
                "type": "Point",
                "coordinates": [
                    4.70212,
                    43.77398,
                    0
                ]
            },
            "properties": {
                "name": "[Tir] 13 Tarascon  (Club de tir Tarasconnais)"
            }
        },
        {
            "type": "Feature",
            "geometry": {
                "type": "Point",
                "coordinates": [
                    5.04778,
                    43.79222,
                    0
                ]
            },
            "properties": {
                "name": "[Tir] 84 Cheval blanc (Tir Durance Luberon)"
            }
        },
        {
            "type": "Feature",
            "geometry": {
                "type": "Point",
                "coordinates": [
                    5.09896,
                    43.6781,
                    0
                ]
            },
            "properties": {
                "name": "[Tir] 13 Salon de Provence (Club de Tir Salonais)"
            }
        },
        {
            "type": "Feature",
            "geometry": {
                "type": "Point",
                "coordinates": [
                    5.21084,
                    43.57283,
                    0
                ]
            },
            "properties": {
                "name": "[Tir] 13 La Fare Les Oliviers (Stand de Tir du Castellas)"
            }
        },
        {
            "type": "Feature",
            "geometry": {
                "type": "Point",
                "coordinates": [
                    5.22854,
                    43.48791,
                    0
                ]
            },
            "properties": {
                "name": "[Tir] 13 Rognac (Tir Sportif A.S.R. (T.S.A.S.R.)"
            }
        },
        {
            "type": "Feature",
            "geometry": {
                "type": "Point",
                "coordinates": [
                    5.27509,
                    43.71812,
                    0
                ]
            },
            "properties": {
                "name": "[Tir] 13 Roque d'Anthéron  ()"
            }
        },
        {
            "type": "Feature",
            "geometry": {
                "type": "Point",
                "coordinates": [
                    5.3638,
                    43.88181,
                    0
                ]
            },
            "properties": {
                "name": "[Tir] 84 Apt (S.T.A.)"
            }
        },
        {
            "type": "Feature",
            "geometry": {
                "type": "Point",
                "coordinates": [
                    5.45965,
                    43.50618,
                    0
                ]
            },
            "properties": {
                "name": "[Tir] 13 Aix en Provence (S.T.A.S.A. Stand Aix-Montaiguet)"
            }
        },
        {
            "type": "Feature",
            "geometry": {
                "type": "Point",
                "coordinates": [
                    5.49944,
                    43.67,
                    0
                ]
            },
            "properties": {
                "name": "[Tir] 84 Pertuis  ( A.P.L.)"
            }
        },
        {
            "type": "Feature",
            "geometry": {
                "type": "Point",
                "coordinates": [
                    5.88583,
                    43.50528,
                    0
                ]
            },
            "properties": {
                "name": "[Tir] 83 Seillons (Club de tir seillonnais)"
            }
        },
        {
            "type": "Feature",
            "geometry": {
                "type": "Point",
                "coordinates": [
                    6.46721,
                    43.55971,
                    0
                ]
            },
            "properties": {
                "name": "[Tir] 83 Draguignan (Sté de tir de et du Haut Var)"
            }
        },
        {
            "type": "Feature",
            "geometry": {
                "type": "Point",
                "coordinates": [
                    6.71658,
                    43.47682,
                    0
                ]
            },
            "properties": {
                "name": "[Tir] 83 Fréjus (Club omnisport de la garnison Fréjus-St Raphaël"
            }
        },
        {
            "type": "Feature",
            "geometry": {
                "type": "Point",
                "coordinates": [
                    6.7731,
                    43.47309,
                    0
                ]
            },
            "properties": {
                "name": "[Tir] 83 Fréjus (Club de tir fréjusien)"
            }
        },
        {
            "type": "Feature",
            "geometry": {
                "type": "Point",
                "coordinates": [
                    7.07723,
                    43.6051,
                    0
                ]
            },
            "properties": {
                "name": "[Tir] 06 Antibes (C.T.S.A.)"
            }
        },
        {
            "type": "Feature",
            "geometry": {
                "type": "Point",
                "coordinates": [
                    7.2638,
                    43.77602,
                    0
                ]
            },
            "properties": {
                "name": "[Tir] 06 Nice (T.C.D.C.A.)(Fort du Mont Chauve)"
            }
        },
        {
            "type": "Feature",
            "geometry": {
                "type": "Point",
                "coordinates": [
                    7.30395,
                    43.73436,
                    0
                ]
            },
            "properties": {
                "name": "[Tir] 06 La Trinité  (Stand de 'Oli)"
            }
        },
        {
            "type": "Feature",
            "geometry": {
                "type": "Point",
                "coordinates": [
                    7.36522,
                    43.7386,
                    0
                ]
            },
            "properties": {
                "name": "[Tir] 06 Eze (C.T.C.M.R.  Fort de la Drette )"
            }
        },
        {
            "type": "Feature",
            "geometry": {
                "type": "Point",
                "coordinates": [
                    7.39833,
                    43.73722,
                    0
                ]
            },
            "properties": {
                "name": "[Tir] 06 La Turbie (A.S.Turbiasque)"
            }
        },
        {
            "type": "Feature",
            "geometry": {
                "type": "Point",
                "coordinates": [
                    7.41444,
                    43.72889,
                    0
                ]
            },
            "properties": {
                "name": "[Tir] Monaco (La Carabine de Monaco)"
            }
        },
        {
            "type": "Feature",
            "geometry": {
                "type": "Point",
                "coordinates": [
                    -1.13361,
                    44.5875,
                    0
                ]
            },
            "properties": {
                "name": "[Tir] 33 Arcachon (A.T.C.B.A)"
            }
        },
        {
            "type": "Feature",
            "geometry": {
                "type": "Point",
                "coordinates": [
                    -0.95495,
                    45.26168,
                    0
                ]
            },
            "properties": {
                "name": "[Tir] 33 Lesparre Meroc (Club de tir Lesparre)"
            }
        },
        {
            "type": "Feature",
            "geometry": {
                "type": "Point",
                "coordinates": [
                    -0.82179,
                    45.31918,
                    0
                ]
            },
            "properties": {
                "name": "[Tir] 33 Saint Yzans de Médoc ( En Avant )"
            }
        },
        {
            "type": "Feature",
            "geometry": {
                "type": "Point",
                "coordinates": [
                    -0.81977,
                    45.00454,
                    0
                ]
            },
            "properties": {
                "name": "[Tir] 33 Castelnau de medoc (CTC club de tir à la cible)"
            }
        },
        {
            "type": "Feature",
            "geometry": {
                "type": "Point",
                "coordinates": [
                    -0.71233,
                    44.84765,
                    0
                ]
            },
            "properties": {
                "name": "[Tir] 33 Bordeaux (Girondins Tir)"
            }
        },
        {
            "type": "Feature",
            "geometry": {
                "type": "Point",
                "coordinates": [
                    -0.60278,
                    44.79806,
                    0
                ]
            },
            "properties": {
                "name": "[Tir] 33 Talence (Creps)"
            }
        },
        {
            "type": "Feature",
            "geometry": {
                "type": "Point",
                "coordinates": [
                    -0.48096,
                    43.91249,
                    0
                ]
            },
            "properties": {
                "name": "[Tir] 40 Mont de Marsan (Section tir du stade Montois)"
            }
        },
        {
            "type": "Feature",
            "geometry": {
                "type": "Point",
                "coordinates": [
                    0,
                    44.89972,
                    0
                ]
            },
            "properties": {
                "name": "[Tir] 05  Briançon (stands ESB tir 10m )"
            }
        },
        {
            "type": "Feature",
            "geometry": {
                "type": "Point",
                "coordinates": [
                    0,
                    45.2,
                    0
                ]
            },
            "properties": {
                "name": "[Tir] 73 Modane (CT Modane 25/50/100m)"
            }
        },
        {
            "type": "Feature",
            "geometry": {
                "type": "Point",
                "coordinates": [
                    0,
                    45.20353,
                    0
                ]
            },
            "properties": {
                "name": "[Tir] 73 Modane (CT Modane 10m)"
            }
        },
        {
            "type": "Feature",
            "geometry": {
                "type": "Point",
                "coordinates": [
                    0.14221,
                    44.44166,
                    0
                ]
            },
            "properties": {
                "name": "[Tir] 47 Fourques (Sté de tir de Marmande)"
            }
        },
        {
            "type": "Feature",
            "geometry": {
                "type": "Point",
                "coordinates": [
                    0.17527,
                    44.12249,
                    0
                ]
            },
            "properties": {
                "name": "[Tir] 47 Nérac (Club de Tir d'Albret )"
            }
        },
        {
            "type": "Feature",
            "geometry": {
                "type": "Point",
                "coordinates": [
                    0.18976,
                    44.17631,
                    0
                ]
            },
            "properties": {
                "name": "[Tir] 47 Vianne (Tir Sportif Vacans du Tuco)"
            }
        },
        {
            "type": "Feature",
            "geometry": {
                "type": "Point",
                "coordinates": [
                    0.33097,
                    44.34593,
                    0
                ]
            },
            "properties": {
                "name": "[Tir] 47 Tonneins ( Association Tonneinquaise de Tir )"
            }
        },
        {
            "type": "Feature",
            "geometry": {
                "type": "Point",
                "coordinates": [
                    0.44379,
                    43.93402,
                    0
                ]
            },
            "properties": {
                "name": "[Tir] 32 Caussens (CT de la Tenareze)"
            }
        },
        {
            "type": "Feature",
            "geometry": {
                "type": "Point",
                "coordinates": [
                    0.59328,
                    44.19932,
                    0
                ]
            },
            "properties": {
                "name": "[Tir] 47 Le Passage (Asso. Sportive Passage d'Agen)"
            }
        },
        {
            "type": "Feature",
            "geometry": {
                "type": "Point",
                "coordinates": [
                    0.62833,
                    45.21694,
                    0
                ]
            },
            "properties": {
                "name": "[Tir] 24 La Chapelle Gonaguet (Sté de tir du Périgord)"
            }
        },
        {
            "type": "Feature",
            "geometry": {
                "type": "Point",
                "coordinates": [
                    0.65737,
                    44.17289,
                    0
                ]
            },
            "properties": {
                "name": "[Tir] 47 Boé ( ASAP Tir )"
            }
        },
        {
            "type": "Feature",
            "geometry": {
                "type": "Point",
                "coordinates": [
                    0.71729,
                    44.40609,
                    0
                ]
            },
            "properties": {
                "name": "[Tir] 47 Villeneuve sur lot ( Ste de Tir de Villeneuve 10m )"
            }
        },
        {
            "type": "Feature",
            "geometry": {
                "type": "Point",
                "coordinates": [
                    0.76175,
                    43.90646,
                    0
                ]
            },
            "properties": {
                "name": "[Tir] 32 St Clar (Cercle auscitain de tir sportif)"
            }
        },
        {
            "type": "Feature",
            "geometry": {
                "type": "Point",
                "coordinates": [
                    1.11172,
                    45.24936,
                    0
                ]
            },
            "properties": {
                "name": "[Tir] 24 Clermont D'Excideuil (Sté de tir de Hautefort)"
            }
        },
        {
            "type": "Feature",
            "geometry": {
                "type": "Point",
                "coordinates": [
                    1.12416,
                    44.11524,
                    0
                ]
            },
            "properties": {
                "name": "[Tir] 82 Moissac (A.M.T.A.R.C.)"
            }
        },
        {
            "type": "Feature",
            "geometry": {
                "type": "Point",
                "coordinates": [
                    1.21291,
                    45.10234,
                    0
                ]
            },
            "properties": {
                "name": "[Tir] 24 Le Lardin (Amicale des tireurs Vezeriens)"
            }
        },
        {
            "type": "Feature",
            "geometry": {
                "type": "Point",
                "coordinates": [
                    1.23916,
                    44.89972,
                    0
                ]
            },
            "properties": {
                "name": "[Tir] 24 Sarlat La Caneda (Asso des tireurs Salardais)"
            }
        },
        {
            "type": "Feature",
            "geometry": {
                "type": "Point",
                "coordinates": [
                    1.4135,
                    44.04683,
                    0
                ]
            },
            "properties": {
                "name": "[Tir] 82 Montauban (Asso. des tireurs montalbanais)"
            }
        },
        {
            "type": "Feature",
            "geometry": {
                "type": "Point",
                "coordinates": [
                    1.52694,
                    44.3775,
                    0
                ]
            },
            "properties": {
                "name": "[Tir] 46 Cahors (Cahors tir spotif)"
            }
        },
        {
            "type": "Feature",
            "geometry": {
                "type": "Point",
                "coordinates": [
                    1.54054,
                    45.04972,
                    0
                ]
            },
            "properties": {
                "name": "[Tir] 19 Brive (Sté de tir Briviste)"
            }
        },
        {
            "type": "Feature",
            "geometry": {
                "type": "Point",
                "coordinates": [
                    1.69548,
                    44.79868,
                    0
                ]
            },
            "properties": {
                "name": "[Tir] 46 Gramat (A.C.L.P.C.E. de Gramat)"
            }
        },
        {
            "type": "Feature",
            "geometry": {
                "type": "Point",
                "coordinates": [
                    1.73388,
                    44.12389,
                    0
                ]
            },
            "properties": {
                "name": "[Tir] 82 Saint Antonin noble val (A.S des Tireurs St.Antoninois)"
            }
        },
        {
            "type": "Feature",
            "geometry": {
                "type": "Point",
                "coordinates": [
                    2.00222,
                    44.61889,
                    0
                ]
            },
            "properties": {
                "name": "[Tir] 46 Figeac (Cible Figeacoise)"
            }
        },
        {
            "type": "Feature",
            "geometry": {
                "type": "Point",
                "coordinates": [
                    2.03936,
                    45.28274,
                    0
                ]
            },
            "properties": {
                "name": "[Tir] 19 Marcillac-la-Croisille (Sportir Club Marcillacois)"
            }
        },
        {
            "type": "Feature",
            "geometry": {
                "type": "Point",
                "coordinates": [
                    2.17006,
                    43.92051,
                    0
                ]
            },
            "properties": {
                "name": "[Tir] 81 Albi (Asso. Sportive de Tir Albi-Cagnac)"
            }
        },
        {
            "type": "Feature",
            "geometry": {
                "type": "Point",
                "coordinates": [
                    2.43716,
                    44.90305,
                    0
                ]
            },
            "properties": {
                "name": "[Tir] 15 Aurillac (S.T.A.)"
            }
        },
        {
            "type": "Feature",
            "geometry": {
                "type": "Point",
                "coordinates": [
                    2.53367,
                    44.37025,
                    0
                ]
            },
            "properties": {
                "name": "[Tir] 12 Rodez (T.C.S.Rhuthénois)"
            }
        },
        {
            "type": "Feature",
            "geometry": {
                "type": "Point",
                "coordinates": [
                    2.89472,
                    43.95083,
                    0
                ]
            },
            "properties": {
                "name": "[Tir] 12 Saint-Affrique (A.S.T. St-Affrique)"
            }
        },
        {
            "type": "Feature",
            "geometry": {
                "type": "Point",
                "coordinates": [
                    3.00277,
                    44.46,
                    0
                ]
            },
            "properties": {
                "name": "[Tir] 12 Saint Geniez d'Olt (MARMOTIR)"
            }
        },
        {
            "type": "Feature",
            "geometry": {
                "type": "Point",
                "coordinates": [
                    3.08797,
                    45.04182,
                    0
                ]
            },
            "properties": {
                "name": "[Tir] 15 Saint Flour (Alerte Sanfloraine)"
            }
        },
        {
            "type": "Feature",
            "geometry": {
                "type": "Point",
                "coordinates": [
                    3.27139,
                    44.40917,
                    0
                ]
            },
            "properties": {
                "name": "[Tir] 48 La Carnougue (T.S.C.)"
            }
        },
        {
            "type": "Feature",
            "geometry": {
                "type": "Point",
                "coordinates": [
                    3.7625,
                    45.00916,
                    0
                ]
            },
            "properties": {
                "name": "[Tir] 43 Bains (Sté de tir et de loisirs de Bains)"
            }
        },
        {
            "type": "Feature",
            "geometry": {
                "type": "Point",
                "coordinates": [
                    4.76528,
                    43.9275,
                    0
                ]
            },
            "properties": {
                "name": "[Tir] 84 Avignon (S.A.T.)"
            }
        },
        {
            "type": "Feature",
            "geometry": {
                "type": "Point",
                "coordinates": [
                    4.72498,
                    43.96158,
                    0
                ]
            },
            "properties": {
                "name": "[Tir] 30 Rochefort (S.P.T.)"
            }
        },
        {
            "type": "Feature",
            "geometry": {
                "type": "Point",
                "coordinates": [
                    4.79419,
                    43.98955,
                    0
                ]
            },
            "properties": {
                "name": "[Tir] 30 Villeneuve les Avignon (Sté de Tir d'Avignon et de Vaucluse)"
            }
        },
        {
            "type": "Feature",
            "geometry": {
                "type": "Point",
                "coordinates": [
                    4.48583,
                    44.0075,
                    0
                ]
            },
            "properties": {
                "name": "[Tir] 30 St. Siffret (L.T. De L'Uzege)"
            }
        },
        {
            "type": "Feature",
            "geometry": {
                "type": "Point",
                "coordinates": [
                    4.14397,
                    44.05674,
                    0
                ]
            },
            "properties": {
                "name": "[Tir] 30 Vezenobres  (E.S.V.)"
            }
        },
        {
            "type": "Feature",
            "geometry": {
                "type": "Point",
                "coordinates": [
                    4.7953,
                    44.13209,
                    0
                ]
            },
            "properties": {
                "name": "[Tir] 84 Orange (C.C.O. 25m)"
            }
        },
        {
            "type": "Feature",
            "geometry": {
                "type": "Point",
                "coordinates": [
                    4.78664,
                    44.13667,
                    0
                ]
            },
            "properties": {
                "name": "[Tir] 84 Orange (C.C.O. 10m)"
            }
        },
        {
            "type": "Feature",
            "geometry": {
                "type": "Point",
                "coordinates": [
                    4.62854,
                    44.13741,
                    0
                ]
            },
            "properties": {
                "name": "[Tir] 30 Bagnols/Cèze ( A.S.C.E.A.)"
            }
        },
        {
            "type": "Feature",
            "geometry": {
                "type": "Point",
                "coordinates": [
                    4.74042,
                    44.28963,
                    0
                ]
            },
            "properties": {
                "name": "[Tir] 84 Bollène (A.S.C.E.A. Bollène)"
            }
        },
        {
            "type": "Feature",
            "geometry": {
                "type": "Point",
                "coordinates": [
                    4.57297,
                    44.29099,
                    0
                ]
            },
            "properties": {
                "name": "[Tir] 30 St Julien de Peyrolas (STPO)"
            }
        },
        {
            "type": "Feature",
            "geometry": {
                "type": "Point",
                "coordinates": [
                    4.18643,
                    44.29414,
                    0
                ]
            },
            "properties": {
                "name": "[Tir] 30 Saint Brès (La détente)"
            }
        },
        {
            "type": "Feature",
            "geometry": {
                "type": "Point",
                "coordinates": [
                    4.75908,
                    44.5331,
                    0
                ]
            },
            "properties": {
                "name": "[Tir] 26 Montellimar (C.T.S.M.)"
            }
        },
        {
            "type": "Feature",
            "geometry": {
                "type": "Point",
                "coordinates": [
                    4.42457,
                    44.60533,
                    0
                ]
            },
            "properties": {
                "name": "[Tir] 07 Aubenas (U.S.A. Tir)"
            }
        },
        {
            "type": "Feature",
            "geometry": {
                "type": "Point",
                "coordinates": [
                    4.77806,
                    44.65917,
                    0
                ]
            },
            "properties": {
                "name": "[Tir] 07 Cruas (Promotion du tir sportif)"
            }
        },
        {
            "type": "Feature",
            "geometry": {
                "type": "Point",
                "coordinates": [
                    3.86333,
                    44.71721,
                    0
                ]
            },
            "properties": {
                "name": "[Tir] 48 Langogne (Chevaliers tireurs Gevaudanais)"
            }
        },
        {
            "type": "Feature",
            "geometry": {
                "type": "Point",
                "coordinates": [
                    3.84708,
                    45.02627,
                    0
                ]
            },
            "properties": {
                "name": "[Tir] 43 Ceyssac (Chevaliers Tireurs Villaves)"
            }
        },
        {
            "type": "Feature",
            "geometry": {
                "type": "Point",
                "coordinates": [
                    3.87184,
                    45.03973,
                    0
                ]
            },
            "properties": {
                "name": "[Tir] 43 Espaly St Marcel  (Tir Sportif d'Espaly 10m)"
            }
        },
        {
            "type": "Feature",
            "geometry": {
                "type": "Point",
                "coordinates": [
                    3.87184,
                    45.03973,
                    0
                ]
            },
            "properties": {
                "name": "[Tir] 43 Espaly St Marcel (Tir Sportif d'Espaly 25/50m)"
            }
        },
        {
            "type": "Feature",
            "geometry": {
                "type": "Point",
                "coordinates": [
                    4.67349,
                    45.23723,
                    0
                ]
            },
            "properties": {
                "name": "[Tir] 07 Annonay  (C.T.A.)"
            }
        },
        {
            "type": "Feature",
            "geometry": {
                "type": "Point",
                "coordinates": [
                    4.79972,
                    45.35444,
                    0
                ]
            },
            "properties": {
                "name": "[Tir] 38 Salaise sur Sanne (Rodhia club du Péage de Roussillon)"
            }
        },
        {
            "type": "Feature",
            "geometry": {
                "type": "Point",
                "coordinates": [
                    4.87454,
                    44.9658,
                    0
                ]
            },
            "properties": {
                "name": "[Tir] 26 Bourg les Valence (C.T.S. BLV)"
            }
        },
        {
            "type": "Feature",
            "geometry": {
                "type": "Point",
                "coordinates": [
                    4.89136,
                    44.05613,
                    0
                ]
            },
            "properties": {
                "name": "[Tir] 84 Bédarrides (A.S.B. Tir)"
            }
        },
        {
            "type": "Feature",
            "geometry": {
                "type": "Point",
                "coordinates": [
                    4.9125,
                    44.93639,
                    0
                ]
            },
            "properties": {
                "name": "[Tir] 26 Valance (T.O. Valentinois)"
            }
        },
        {
            "type": "Feature",
            "geometry": {
                "type": "Point",
                "coordinates": [
                    4.91524,
                    44.25525,
                    0
                ]
            },
            "properties": {
                "name": "[Tir] 84 Ste Cecile les vignes (A.S.des Tireurs de l'Aygues)"
            }
        },
        {
            "type": "Feature",
            "geometry": {
                "type": "Point",
                "coordinates": [
                    4.93913,
                    44.87201,
                    0
                ]
            },
            "properties": {
                "name": "[Tir] 26 Beaumont lès Valence (Tir Sportif Beaumontois)"
            }
        },
        {
            "type": "Feature",
            "geometry": {
                "type": "Point",
                "coordinates": [
                    4.98361,
                    44.73722,
                    0
                ]
            },
            "properties": {
                "name": "[Tir] 26 Crest (Les Arquebusiers d'Eurre)"
            }
        },
        {
            "type": "Feature",
            "geometry": {
                "type": "Point",
                "coordinates": [
                    4.99417,
                    44.05444,
                    0
                ]
            },
            "properties": {
                "name": "[Tir] 84 Monteux (S.T.M.)"
            }
        },
        {
            "type": "Feature",
            "geometry": {
                "type": "Point",
                "coordinates": [
                    5.06277,
                    43.89828,
                    0
                ]
            },
            "properties": {
                "name": "[Tir] 84 l'Isle/Sorgue ( A.T.L.A.S.)"
            }
        },
        {
            "type": "Feature",
            "geometry": {
                "type": "Point",
                "coordinates": [
                    5.10583,
                    44.08583,
                    0
                ]
            },
            "properties": {
                "name": "[Tir] 84 Carpentras (T.S.A.C.)"
            }
        },
        {
            "type": "Feature",
            "geometry": {
                "type": "Point",
                "coordinates": [
                    5.10624,
                    45.02616,
                    0
                ]
            },
            "properties": {
                "name": "[Tir] 26 Romans/Isère (U.G.A.P. Tir )"
            }
        },
        {
            "type": "Feature",
            "geometry": {
                "type": "Point",
                "coordinates": [
                    5.15778,
                    44.13222,
                    0
                ]
            },
            "properties": {
                "name": "[Tir] 84 Bedoin (Bedoin-Ventoux)"
            }
        },
        {
            "type": "Feature",
            "geometry": {
                "type": "Point",
                "coordinates": [
                    5.42982,
                    44.09711,
                    0
                ]
            },
            "properties": {
                "name": "[Tir] 84 Sault (Li Petardie Sautareu)"
            }
        },
        {
            "type": "Feature",
            "geometry": {
                "type": "Point",
                "coordinates": [
                    5.68451,
                    45.21125,
                    0
                ]
            },
            "properties": {
                "name": "[Tir] 38 Grenoble (C.T.G.)"
            }
        },
        {
            "type": "Feature",
            "geometry": {
                "type": "Point",
                "coordinates": [
                    5.78886,
                    44.89638,
                    0
                ]
            },
            "properties": {
                "name": "[Tir] 38 La Mure (Club de tir Murois)"
            }
        },
        {
            "type": "Feature",
            "geometry": {
                "type": "Point",
                "coordinates": [
                    6.06296,
                    44.51872,
                    0
                ]
            },
            "properties": {
                "name": "[Tir] 05 Gap (Tir club du Dauphiné)"
            }
        },
        {
            "type": "Feature",
            "geometry": {
                "type": "Point",
                "coordinates": [
                    6.08278,
                    44.49834,
                    0
                ]
            },
            "properties": {
                "name": "[Tir] 05 Gap (Tir Club Gapençais)"
            }
        },
        {
            "type": "Feature",
            "geometry": {
                "type": "Point",
                "coordinates": [
                    6.23383,
                    44.11886,
                    0
                ]
            },
            "properties": {
                "name": "[Tir] 04 Dignes les Bains (Sté de Tir des 3 Vallées)"
            }
        },
        {
            "type": "Feature",
            "geometry": {
                "type": "Point",
                "coordinates": [
                    6.6273,
                    44.88694,
                    0
                ]
            },
            "properties": {
                "name": "[Tir] 05  Briançon (stands ESB tir 25/50m )"
            }
        },
        {
            "type": "Feature",
            "geometry": {
                "type": "Point",
                "coordinates": [
                    6.72166,
                    44.42333,
                    0
                ]
            },
            "properties": {
                "name": "[Tir] 04 Barcelonnette (Escopette de l'Ubaye)"
            }
        },
        {
            "type": "Feature",
            "geometry": {
                "type": "Point",
                "coordinates": [
                    7.15845,
                    44.06139,
                    0
                ]
            },
            "properties": {
                "name": "[Tir] 06 Valdeblore (Tir Club de Valdeblore)"
            }
        },
        {
            "type": "Feature",
            "geometry": {
                "type": "Point",
                "coordinates": [
                    -2.3575,
                    47.29694,
                    0
                ]
            },
            "properties": {
                "name": "[Tir] 44 La Baule ( A.S.C.E.)"
            }
        },
        {
            "type": "Feature",
            "geometry": {
                "type": "Point",
                "coordinates": [
                    -2.12023,
                    47.16921,
                    0
                ]
            },
            "properties": {
                "name": "[Tir] 44 St Michel Chef Chef(Sté de Tir Micheloise /Tharonnaise)"
            }
        },
        {
            "type": "Feature",
            "geometry": {
                "type": "Point",
                "coordinates": [
                    -2.04793,
                    46.79632,
                    0
                ]
            },
            "properties": {
                "name": "[Tir] 85 St Jean de Monts (Sté Montoise de tir)"
            }
        },
        {
            "type": "Feature",
            "geometry": {
                "type": "Point",
                "coordinates": [
                    -1.75568,
                    46.48668,
                    0
                ]
            },
            "properties": {
                "name": "[Tir] 85 Les Sables D'Olonne (As Sablaise de tir à la cible)"
            }
        },
        {
            "type": "Feature",
            "geometry": {
                "type": "Point",
                "coordinates": [
                    -1.54078,
                    46.64842,
                    0
                ]
            },
            "properties": {
                "name": "[Tir] 85 Venansault (Sté sportive de Villebois-Mareuil)"
            }
        },
        {
            "type": "Feature",
            "geometry": {
                "type": "Point",
                "coordinates": [
                    -1.54049,
                    47.25717,
                    0
                ]
            },
            "properties": {
                "name": "[Tir] 44 Nantes (S.N.T)"
            }
        },
        {
            "type": "Feature",
            "geometry": {
                "type": "Point",
                "coordinates": [
                    -1.47061,
                    47.3185,
                    0
                ]
            },
            "properties": {
                "name": "[Tir] 44 Carquefou (Carquefou Tir)"
            }
        },
        {
            "type": "Feature",
            "geometry": {
                "type": "Point",
                "coordinates": [
                    -1.18678,
                    47.39469,
                    0
                ]
            },
            "properties": {
                "name": "[Tir] 44 Ancenis (Arquebusiers du pays d'Ancenis)"
            }
        },
        {
            "type": "Feature",
            "geometry": {
                "type": "Point",
                "coordinates": [
                    -1.15873,
                    45.76542,
                    0
                ]
            },
            "properties": {
                "name": "[Tir] 17 La Tremblade ( A.P.L.T.)"
            }
        },
        {
            "type": "Feature",
            "geometry": {
                "type": "Point",
                "coordinates": [
                    -1.11821,
                    45.47212,
                    0
                ]
            },
            "properties": {
                "name": "[Tir] 33 Soulac sur mer (CST La Cible)"
            }
        },
        {
            "type": "Feature",
            "geometry": {
                "type": "Point",
                "coordinates": [
                    -1.03222,
                    45.62278,
                    0
                ]
            },
            "properties": {
                "name": "[Tir] 17 Royan (Les mouettes de Royan)"
            }
        },
        {
            "type": "Feature",
            "geometry": {
                "type": "Point",
                "coordinates": [
                    -0.97316,
                    45.75895,
                    0
                ]
            },
            "properties": {
                "name": "[Tir] 17 St Sornin (Les arquebusiers des isles de Marennes)"
            }
        },
        {
            "type": "Feature",
            "geometry": {
                "type": "Point",
                "coordinates": [
                    -0.96466,
                    45.92888,
                    0
                ]
            },
            "properties": {
                "name": "[Tir] 17 Rochefort (Tir Sportif Rochefortais)"
            }
        },
        {
            "type": "Feature",
            "geometry": {
                "type": "Point",
                "coordinates": [
                    -0.83944,
                    47.04111,
                    0
                ]
            },
            "properties": {
                "name": "[Tir] 49 Cholet (A.T.2000 )"
            }
        },
        {
            "type": "Feature",
            "geometry": {
                "type": "Point",
                "coordinates": [
                    -0.81669,
                    46.45785,
                    0
                ]
            },
            "properties": {
                "name": "[Tir] 85 Fontenay le Comte (Sté Fontenaisienne de tir)"
            }
        },
        {
            "type": "Feature",
            "geometry": {
                "type": "Point",
                "coordinates": [
                    -0.80084,
                    47.31917,
                    0
                ]
            },
            "properties": {
                "name": "[Tir] 49 St Laurent la Plaine (L'espérance de tir St Laurent la"
            }
        },
        {
            "type": "Feature",
            "geometry": {
                "type": "Point",
                "coordinates": [
                    -0.69112,
                    46.83944,
                    0
                ]
            },
            "properties": {
                "name": "[Tir] 79 Cerizay (L'oeilleton cérizéen)"
            }
        },
        {
            "type": "Feature",
            "geometry": {
                "type": "Point",
                "coordinates": [
                    -0.66783,
                    46.12934,
                    0
                ]
            },
            "properties": {
                "name": "[Tir] 17 St Saturnin du bois (TC Saturninois)"
            }
        },
        {
            "type": "Feature",
            "geometry": {
                "type": "Point",
                "coordinates": [
                    -0.65029,
                    45.71915,
                    0
                ]
            },
            "properties": {
                "name": "[Tir] 17 Saintes (La Saintaise de tir)"
            }
        },
        {
            "type": "Feature",
            "geometry": {
                "type": "Point",
                "coordinates": [
                    -0.39057,
                    45.43972,
                    0
                ]
            },
            "properties": {
                "name": "[Tir] 17 Champagnac (Sté Jonzacaise de tir)"
            }
        },
        {
            "type": "Feature",
            "geometry": {
                "type": "Point",
                "coordinates": [
                    0.115,
                    45.65583,
                    0
                ]
            },
            "properties": {
                "name": "[Tir] 16 Angoulême (Stand Angoumoisin)"
            }
        },
        {
            "type": "Feature",
            "geometry": {
                "type": "Point",
                "coordinates": [
                    -0.31261,
                    45.68124,
                    0
                ]
            },
            "properties": {
                "name": "[Tir] 16 Cognac (Sté de tir de Cognac)"
            }
        },
        {
            "type": "Feature",
            "geometry": {
                "type": "Point",
                "coordinates": [
                    0.21833,
                    45.8325,
                    0
                ]
            },
            "properties": {
                "name": "[Tir] 16 Aussac Vadalle (T. S. 16 MANSLE)"
            }
        },
        {
            "type": "Feature",
            "geometry": {
                "type": "Point",
                "coordinates": [
                    0.19036,
                    46.03237,
                    0
                ]
            },
            "properties": {
                "name": "[Tir] 16 Ruffec (Ass Ruffecoise de tir sportif)"
            }
        },
        {
            "type": "Feature",
            "geometry": {
                "type": "Point",
                "coordinates": [
                    0.12639,
                    46.14417,
                    0
                ]
            },
            "properties": {
                "name": "[Tir] 79 Sauzé-Vaussais (Asso.de tir de loisirs des Alleuds)"
            }
        },
        {
            "type": "Feature",
            "geometry": {
                "type": "Point",
                "coordinates": [
                    -0.25584,
                    46.29138,
                    0
                ]
            },
            "properties": {
                "name": "[Tir] 79 Thorigné (Club de tir sportif de Thorigné)"
            }
        },
        {
            "type": "Feature",
            "geometry": {
                "type": "Point",
                "coordinates": [
                    -0.44306,
                    46.34722,
                    0
                ]
            },
            "properties": {
                "name": "[Tir] 79 Niort (Stade Niortais tir)"
            }
        },
        {
            "type": "Feature",
            "geometry": {
                "type": "Point",
                "coordinates": [
                    -0.41894,
                    46.35542,
                    0
                ]
            },
            "properties": {
                "name": "[Tir] 79 Chauray (Club de Tir de Chauray)"
            }
        },
        {
            "type": "Feature",
            "geometry": {
                "type": "Point",
                "coordinates": [
                    -0.23,
                    46.415,
                    0
                ]
            },
            "properties": {
                "name": "[Tir] 79 St Maixent l'Ecole (Sté Maixentaise de tir)"
            }
        },
        {
            "type": "Feature",
            "geometry": {
                "type": "Point",
                "coordinates": [
                    0.31628,
                    46.57415,
                    0
                ]
            },
            "properties": {
                "name": "[Tir] 86 Poitiers (France Liberté tir olympique poitevin)"
            }
        },
        {
            "type": "Feature",
            "geometry": {
                "type": "Point",
                "coordinates": [
                    -0.21333,
                    46.64194,
                    0
                ]
            },
            "properties": {
                "name": "[Tir] 79 Parthenay (Club de tir sportif Parthenaisien)"
            }
        },
        {
            "type": "Feature",
            "geometry": {
                "type": "Point",
                "coordinates": [
                    0.21026,
                    46.6614,
                    0
                ]
            },
            "properties": {
                "name": "[Tir] 86 Neuville/Poitiers (Stand de Braille-Oueille 25/50/300m)"
            }
        },
        {
            "type": "Feature",
            "geometry": {
                "type": "Point",
                "coordinates": [
                    0.22106,
                    46.99452,
                    0
                ]
            },
            "properties": {
                "name": "[Tir] 86 Neuville de Poitou (Amicale sportive de tir Neuvillois)"
            }
        },
        {
            "type": "Feature",
            "geometry": {
                "type": "Point",
                "coordinates": [
                    0.11089,
                    47.0122,
                    0
                ]
            },
            "properties": {
                "name": "[Tir] 86 Loudun (Club de Tir du Pays Loudunais - 10m)"
            }
        },
        {
            "type": "Feature",
            "geometry": {
                "type": "Point",
                "coordinates": [
                    -0.04732,
                    47.08649,
                    0
                ]
            },
            "properties": {
                "name": "[Tir] 86 St Leger de Montbrillais (stand de la saviniére 25/50m)"
            }
        },
        {
            "type": "Feature",
            "geometry": {
                "type": "Point",
                "coordinates": [
                    0.23995,
                    47.18991,
                    0
                ]
            },
            "properties": {
                "name": "[Tir] 37 Chinon (A.S.T.Chinon)"
            }
        },
        {
            "type": "Feature",
            "geometry": {
                "type": "Point",
                "coordinates": [
                    0.19304,
                    47.19017,
                    0
                ]
            },
            "properties": {
                "name": "[Tir] 37 Avoine (US Electrique Avoine Beaumont)"
            }
        },
        {
            "type": "Feature",
            "geometry": {
                "type": "Point",
                "coordinates": [
                    -0.11961,
                    47.25864,
                    0
                ]
            },
            "properties": {
                "name": "[Tir] 49 Saumur (Sté Saumuroise de tir aux armes rayées)"
            }
        },
        {
            "type": "Feature",
            "geometry": {
                "type": "Point",
                "coordinates": [
                    -0.57396,
                    47.45954,
                    0
                ]
            },
            "properties": {
                "name": "[Tir] 49 Angers (Angers Tir Sportif)"
            }
        },
        {
            "type": "Feature",
            "geometry": {
                "type": "Point",
                "coordinates": [
                    1.2315,
                    45.51617,
                    0
                ]
            },
            "properties": {
                "name": "[Tir] 87 St Yriex la Perche (ASTIRA asso. des tireurs Arediens)"
            }
        },
        {
            "type": "Feature",
            "geometry": {
                "type": "Point",
                "coordinates": [
                    0.99145,
                    45.54258,
                    0
                ]
            },
            "properties": {
                "name": "[Tir] 24 La Coquille (Club de tir de la Valouse)"
            }
        },
        {
            "type": "Feature",
            "geometry": {
                "type": "Point",
                "coordinates": [
                    0.40072,
                    45.72269,
                    0
                ]
            },
            "properties": {
                "name": "[Tir] 16 La Rochefoucaud (Tir sportif Rupificaldien)"
            }
        },
        {
            "type": "Feature",
            "geometry": {
                "type": "Point",
                "coordinates": [
                    1.24694,
                    45.86139,
                    0
                ]
            },
            "properties": {
                "name": "[Tir] 87 Limoges (stand de l'armée)"
            }
        },
        {
            "type": "Feature",
            "geometry": {
                "type": "Point",
                "coordinates": [
                    1.28704,
                    45.90513,
                    0
                ]
            },
            "properties": {
                "name": "[Tir] 87 Limoges (S.S.L.T. Sté sportive limousine de tir)"
            }
        },
        {
            "type": "Feature",
            "geometry": {
                "type": "Point",
                "coordinates": [
                    1.64888,
                    45.92555,
                    0
                ]
            },
            "properties": {
                "name": "[Tir] 23 Bourganeuf (Sté de tir du pays de Bourganeuf)"
            }
        },
        {
            "type": "Feature",
            "geometry": {
                "type": "Point",
                "coordinates": [
                    2.18834,
                    45.96751,
                    0
                ]
            },
            "properties": {
                "name": "[Tir] 23 Aubusson (Club Aubussonnais de tir)"
            }
        },
        {
            "type": "Feature",
            "geometry": {
                "type": "Point",
                "coordinates": [
                    0.48374,
                    45.98553,
                    0
                ]
            },
            "properties": {
                "name": "[Tir] 16 St Coutant (Club de tir de St Coutant)"
            }
        },
        {
            "type": "Feature",
            "geometry": {
                "type": "Point",
                "coordinates": [
                    0.5132,
                    46.16842,
                    0
                ]
            },
            "properties": {
                "name": "[Tir] 86 Mauprévoir (La Patriote Mauprévoir 25/50m)"
            }
        },
        {
            "type": "Feature",
            "geometry": {
                "type": "Point",
                "coordinates": [
                    0.51949,
                    46.17352,
                    0
                ]
            },
            "properties": {
                "name": "[Tir] 86 Mauprévoir (La Patriote Mauprévoir 10m)"
            }
        },
        {
            "type": "Feature",
            "geometry": {
                "type": "Point",
                "coordinates": [
                    1.80138,
                    46.19444,
                    0
                ]
            },
            "properties": {
                "name": "[Tir] 23 Gueret (Sté de tir sportif de Gueret)"
            }
        },
        {
            "type": "Feature",
            "geometry": {
                "type": "Point",
                "coordinates": [
                    1.64972,
                    46.26056,
                    0
                ]
            },
            "properties": {
                "name": "[Tir] 36 Chabris (A.S.C.)"
            }
        },
        {
            "type": "Feature",
            "geometry": {
                "type": "Point",
                "coordinates": [
                    0.90166,
                    46.43011,
                    0
                ]
            },
            "properties": {
                "name": "[Tir] 86 Montmorillon ( Club Cible Montmorillon 25/50/100m )"
            }
        },
        {
            "type": "Feature",
            "geometry": {
                "type": "Point",
                "coordinates": [
                    1.55226,
                    46.57113,
                    0
                ]
            },
            "properties": {
                "name": "[Tir] 36 Le Pechereau (Sté de Tir L'Arquebuse)"
            }
        },
        {
            "type": "Feature",
            "geometry": {
                "type": "Point",
                "coordinates": [
                    1.98278,
                    46.60444,
                    0
                ]
            },
            "properties": {
                "name": "[Tir] 36 Issoudun  (Tir Olympique Issoldunois 10 m)"
            }
        },
        {
            "type": "Feature",
            "geometry": {
                "type": "Point",
                "coordinates": [
                    1.08106,
                    46.62258,
                    0
                ]
            },
            "properties": {
                "name": "[Tir] 36 Le Blanc (Tir Sportif  Blancois)"
            }
        },
        {
            "type": "Feature",
            "geometry": {
                "type": "Point",
                "coordinates": [
                    0.75583,
                    46.73778,
                    0
                ]
            },
            "properties": {
                "name": "[Tir] 86 Pleumartin (tir de solidarité Pleumartin)"
            }
        },
        {
            "type": "Feature",
            "geometry": {
                "type": "Point",
                "coordinates": [
                    0.83222,
                    46.77111,
                    0
                ]
            },
            "properties": {
                "name": "[Tir] 86 La Roche Posay (La détente rochelaise)"
            }
        },
        {
            "type": "Feature",
            "geometry": {
                "type": "Point",
                "coordinates": [
                    0.5149,
                    46.80786,
                    0
                ]
            },
            "properties": {
                "name": "[Tir] 86 Chatellerault (CSAC ESOG Tir)"
            }
        },
        {
            "type": "Feature",
            "geometry": {
                "type": "Point",
                "coordinates": [
                    0.62675,
                    47.28271,
                    0
                ]
            },
            "properties": {
                "name": "[Tir] 37 Monts (A.S. Monts Tir)"
            }
        },
        {
            "type": "Feature",
            "geometry": {
                "type": "Point",
                "coordinates": [
                    0.69777,
                    46.98182,
                    0
                ]
            },
            "properties": {
                "name": "[Tir] 37 Descartes (A.T.D.E.Descartes)"
            }
        },
        {
            "type": "Feature",
            "geometry": {
                "type": "Point",
                "coordinates": [
                    0.71496,
                    47.47445,
                    0
                ]
            },
            "properties": {
                "name": "[Tir] 37 Chanceau/Choisille (C.T. Cancellien)"
            }
        },
        {
            "type": "Feature",
            "geometry": {
                "type": "Point",
                "coordinates": [
                    0.86182,
                    47.37314,
                    0
                ]
            },
            "properties": {
                "name": "[Tir] 37 Montlouis sur Loire (Alerte sportive de Montlouis)"
            }
        },
        {
            "type": "Feature",
            "geometry": {
                "type": "Point",
                "coordinates": [
                    1.09832,
                    47.18472,
                    0
                ]
            },
            "properties": {
                "name": "[Tir] 37 Genille (Club de Tir de Genille)"
            }
        },
        {
            "type": "Feature",
            "geometry": {
                "type": "Point",
                "coordinates": [
                    1.11391,
                    47.02988,
                    0
                ]
            },
            "properties": {
                "name": "[Tir] 37 Saint Hippolyte (Stand de Tir de Saint Hippolyte)"
            }
        },
        {
            "type": "Feature",
            "geometry": {
                "type": "Point",
                "coordinates": [
                    1.16418,
                    47.33111,
                    0
                ]
            },
            "properties": {
                "name": "[Tir] 41 Saint Georges sur Cher (Sté de tir de Saint Georges)"
            }
        },
        {
            "type": "Feature",
            "geometry": {
                "type": "Point",
                "coordinates": [
                    1.19638,
                    46.81111,
                    0
                ]
            },
            "properties": {
                "name": "[Tir] 36 Mezières-en-Brenne (Club de Tir de Brennou)"
            }
        },
        {
            "type": "Feature",
            "geometry": {
                "type": "Point",
                "coordinates": [
                    1.36611,
                    47.26166,
                    0
                ]
            },
            "properties": {
                "name": "[Tir] 41 Saint Aignan (Sté de Tir Mixte de Saint Aignan)"
            }
        },
        {
            "type": "Feature",
            "geometry": {
                "type": "Point",
                "coordinates": [
                    1.45679,
                    47.5119,
                    0
                ]
            },
            "properties": {
                "name": "[Tir] 41 Cour-Cheverny (Etoile Sportive Cheverny Cour-Cheverny)"
            }
        },
        {
            "type": "Feature",
            "geometry": {
                "type": "Point",
                "coordinates": [
                    1.57333,
                    47.28333,
                    0
                ]
            },
            "properties": {
                "name": "[Tir] 41 Selles sur Cher (Club de Tir Sellois)"
            }
        },
        {
            "type": "Feature",
            "geometry": {
                "type": "Point",
                "coordinates": [
                    1.59542,
                    46.9804,
                    0
                ]
            },
            "properties": {
                "name": "[Tir] 36 Levroux (Sté de Tir Levrousaine)"
            }
        },
        {
            "type": "Feature",
            "geometry": {
                "type": "Point",
                "coordinates": [
                    1.67611,
                    46.83802,
                    0
                ]
            },
            "properties": {
                "name": "[Tir] 36 Châteauroux  (Sté de Tir Châteauroux)"
            }
        },
        {
            "type": "Feature",
            "geometry": {
                "type": "Point",
                "coordinates": [
                    1.68194,
                    47.31999,
                    0
                ]
            },
            "properties": {
                "name": "[Tir] 41 Pruniers en Sologne (C.S.A. 602 DÉTACHEMENT AIR 273)"
            }
        },
        {
            "type": "Feature",
            "geometry": {
                "type": "Point",
                "coordinates": [
                    1.6997,
                    46.8473,
                    0
                ]
            },
            "properties": {
                "name": "[Tir] 36 Déols (Ailes sportives Déoloises )"
            }
        },
        {
            "type": "Feature",
            "geometry": {
                "type": "Point",
                "coordinates": [
                    1.73657,
                    46.96586,
                    0
                ]
            },
            "properties": {
                "name": "[Tir] 36 Brion (U.S. Brion)"
            }
        },
        {
            "type": "Feature",
            "geometry": {
                "type": "Point",
                "coordinates": [
                    1.74056,
                    47.35389,
                    0
                ]
            },
            "properties": {
                "name": "[Tir] 41 Romorantin (S.M.S.Romorantin)"
            }
        },
        {
            "type": "Feature",
            "geometry": {
                "type": "Point",
                "coordinates": [
                    2.04667,
                    47.41389,
                    0
                ]
            },
            "properties": {
                "name": "[Tir] 41 Salbris (Ass. Salbris Tir à la Cible 25/50m)"
            }
        },
        {
            "type": "Feature",
            "geometry": {
                "type": "Point",
                "coordinates": [
                    2.05444,
                    47.42444,
                    0
                ]
            },
            "properties": {
                "name": "[Tir] 41 Salbris (Ass. Salbris Tir à la Cible 10m)"
            }
        },
        {
            "type": "Feature",
            "geometry": {
                "type": "Point",
                "coordinates": [
                    2.11583,
                    47.20111,
                    0
                ]
            },
            "properties": {
                "name": "[Tir] 18 Vierzon (C.T.S. Vierzonnais)"
            }
        },
        {
            "type": "Feature",
            "geometry": {
                "type": "Point",
                "coordinates": [
                    2.22639,
                    46.70778,
                    0
                ]
            },
            "properties": {
                "name": "[Tir] 18 Touchay (Sté de Tir Touchay"
            }
        },
        {
            "type": "Feature",
            "geometry": {
                "type": "Point",
                "coordinates": [
                    2.25472,
                    47.14028,
                    0
                ]
            },
            "properties": {
                "name": "[Tir] 18 Mehun (Tir sportif Mehunois)"
            }
        },
        {
            "type": "Feature",
            "geometry": {
                "type": "Point",
                "coordinates": [
                    2.28167,
                    45.54139,
                    0
                ]
            },
            "properties": {
                "name": "[Tir] 19 Ussel  (Amicale de tir Usselloise)"
            }
        },
        {
            "type": "Feature",
            "geometry": {
                "type": "Point",
                "coordinates": [
                    2.39941,
                    47.09139,
                    0
                ]
            },
            "properties": {
                "name": "[Tir] 18 Bourges (S.T.B. 10m)"
            }
        },
        {
            "type": "Feature",
            "geometry": {
                "type": "Point",
                "coordinates": [
                    2.4306,
                    47.05624,
                    0
                ]
            },
            "properties": {
                "name": "[Tir] 18 Bourges (S.T.B. 25-50m)"
            }
        },
        {
            "type": "Feature",
            "geometry": {
                "type": "Point",
                "coordinates": [
                    2.43061,
                    47.05634,
                    0
                ]
            },
            "properties": {
                "name": "[Tir] 18 Bourges (Sté de tir de Bourges)"
            }
        },
        {
            "type": "Feature",
            "geometry": {
                "type": "Point",
                "coordinates": [
                    2.43111,
                    46.27361,
                    0
                ]
            },
            "properties": {
                "name": "[Tir] 23 Viersat (Sté de tir la carabine Viersatoise)"
            }
        },
        {
            "type": "Feature",
            "geometry": {
                "type": "Point",
                "coordinates": [
                    2.49611,
                    46.72944,
                    0
                ]
            },
            "properties": {
                "name": "[Tir] 18 Saint Amand Montrond (Tir Sporting Club St-Amandois)"
            }
        },
        {
            "type": "Feature",
            "geometry": {
                "type": "Point",
                "coordinates": [
                    2.49861,
                    46.02055,
                    0
                ]
            },
            "properties": {
                "name": "[Tir] 23 Auzances (Auzances tir sportif)"
            }
        },
        {
            "type": "Feature",
            "geometry": {
                "type": "Point",
                "coordinates": [
                    2.56693,
                    46.35132,
                    0
                ]
            },
            "properties": {
                "name": "[Tir] 03 Domerat (Sté de tir sportif de Montluçon)"
            }
        },
        {
            "type": "Feature",
            "geometry": {
                "type": "Point",
                "coordinates": [
                    2.57893,
                    46.34167,
                    0
                ]
            },
            "properties": {
                "name": "[Tir] 03 Montluçon (CSLG section tir)"
            }
        },
        {
            "type": "Feature",
            "geometry": {
                "type": "Point",
                "coordinates": [
                    2.71833,
                    46.28472,
                    0
                ]
            },
            "properties": {
                "name": "[Tir] 03 Commentry (Tir cible RPNA)"
            }
        },
        {
            "type": "Feature",
            "geometry": {
                "type": "Point",
                "coordinates": [
                    2.755,
                    47.25083,
                    0
                ]
            },
            "properties": {
                "name": "[Tir] 18 Veaugues (Sté de Tir Sancerrois)"
            }
        },
        {
            "type": "Feature",
            "geometry": {
                "type": "Point",
                "coordinates": [
                    2.92529,
                    47.41136,
                    0
                ]
            },
            "properties": {
                "name": "[Tir] 58 Cosne Cours Sur Loire ( L'arquebuse Cosnoise10m)"
            }
        },
        {
            "type": "Feature",
            "geometry": {
                "type": "Point",
                "coordinates": [
                    2.94833,
                    46.84139,
                    0
                ]
            },
            "properties": {
                "name": "[Tir] 18 Sancoins (Tir Sportif Sancoinnais)"
            }
        },
        {
            "type": "Feature",
            "geometry": {
                "type": "Point",
                "coordinates": [
                    2.97127,
                    47.46333,
                    0
                ]
            },
            "properties": {
                "name": "[Tir] 58 Cosne Cours Sur Loire (L'arquebuse Cosnoise25/50m)"
            }
        },
        {
            "type": "Feature",
            "geometry": {
                "type": "Point",
                "coordinates": [
                    3.00444,
                    47.16889,
                    0
                ]
            },
            "properties": {
                "name": "[Tir] 58 La Charité sur Loire (Union sportive charitoise)"
            }
        },
        {
            "type": "Feature",
            "geometry": {
                "type": "Point",
                "coordinates": [
                    3.13708,
                    47.00554,
                    0
                ]
            },
            "properties": {
                "name": "[Tir] 58 Varennes Vauzelles (A.S.Amicale de Vauzelles)"
            }
        },
        {
            "type": "Feature",
            "geometry": {
                "type": "Point",
                "coordinates": [
                    3.14683,
                    46.97592,
                    0
                ]
            },
            "properties": {
                "name": "[Tir] 58 Challuy (Union Sportive Olympique Nivernaise)"
            }
        },
        {
            "type": "Feature",
            "geometry": {
                "type": "Point",
                "coordinates": [
                    4.32833,
                    45.43027,
                    0
                ]
            },
            "properties": {
                "name": "[Tir] 42 Roche la Molière (Centre de tir Rouchon)"
            }
        },
        {
            "type": "Feature",
            "geometry": {
                "type": "Point",
                "coordinates": [
                    4.84654,
                    45.5088,
                    0
                ]
            },
            "properties": {
                "name": "[Tir] 38  Vienne (Tir Olympique Viennois 25/50m)"
            }
        },
        {
            "type": "Feature",
            "geometry": {
                "type": "Point",
                "coordinates": [
                    3.2524,
                    45.55319,
                    0
                ]
            },
            "properties": {
                "name": "[Tir] 63 Issoire (USI Tir)"
            }
        },
        {
            "type": "Feature",
            "geometry": {
                "type": "Point",
                "coordinates": [
                    4.07333,
                    45.69611,
                    0
                ]
            },
            "properties": {
                "name": "[Tir] 42 Montverdun (Centre de tir du Mont Uzore)"
            }
        },
        {
            "type": "Feature",
            "geometry": {
                "type": "Point",
                "coordinates": [
                    3.15304,
                    45.775,
                    0
                ]
            },
            "properties": {
                "name": "[Tir] 63 Clermont-Ferrand (T.A.R.C.)"
            }
        },
        {
            "type": "Feature",
            "geometry": {
                "type": "Point",
                "coordinates": [
                    3.24813,
                    45.8098,
                    0
                ]
            },
            "properties": {
                "name": "[Tir] 63 Pont du Chateau (Sté de Tir de Castelpontin)"
            }
        },
        {
            "type": "Feature",
            "geometry": {
                "type": "Point",
                "coordinates": [
                    4.74804,
                    45.82444,
                    0
                ]
            },
            "properties": {
                "name": "[Tir] 69 Dartilly (DPF Stand du club Dartilly poudre et flèche)"
            }
        },
        {
            "type": "Feature",
            "geometry": {
                "type": "Point",
                "coordinates": [
                    4.82559,
                    45.85277,
                    0
                ]
            },
            "properties": {
                "name": "[Tir] 69 Couzon au Mont-D'or (T.O.L. Tir Olympique Lyonnais)"
            }
        },
        {
            "type": "Feature",
            "geometry": {
                "type": "Point",
                "coordinates": [
                    4.75234,
                    45.96264,
                    0
                ]
            },
            "properties": {
                "name": "[Tir] 01 Jassans-Riottier (Tir Sportif de Jassans - T.S.J.)"
            }
        },
        {
            "type": "Feature",
            "geometry": {
                "type": "Point",
                "coordinates": [
                    4.09388,
                    46.06917,
                    0
                ]
            },
            "properties": {
                "name": "[Tir] 42 Roanne (La cible Roannaise)"
            }
        },
        {
            "type": "Feature",
            "geometry": {
                "type": "Point",
                "coordinates": [
                    3.39444,
                    46.08055,
                    0
                ]
            },
            "properties": {
                "name": "[Tir] 03 Vichy (Tir sportif de Vichy)"
            }
        },
        {
            "type": "Feature",
            "geometry": {
                "type": "Point",
                "coordinates": [
                    4.8098,
                    46.29926,
                    0
                ]
            },
            "properties": {
                "name": "[Tir] 71 Macon (Sté de Tir Maconnaise)"
            }
        },
        {
            "type": "Feature",
            "geometry": {
                "type": "Point",
                "coordinates": [
                    3.28083,
                    46.36889,
                    0
                ]
            },
            "properties": {
                "name": "[Tir] 03 St Pourcain sur Sioule (S.T.A.R. Saint-Pourcinoise)"
            }
        },
        {
            "type": "Feature",
            "geometry": {
                "type": "Point",
                "coordinates": [
                    3.31417,
                    46.56778,
                    0
                ]
            },
            "properties": {
                "name": "[Tir] 03 Moulins (A.S.T.A.)"
            }
        },
        {
            "type": "Feature",
            "geometry": {
                "type": "Point",
                "coordinates": [
                    4.06747,
                    46.62583,
                    0
                ]
            },
            "properties": {
                "name": "[Tir] 71 Gueugnon (Sté de Tir L'Indépendante)"
            }
        },
        {
            "type": "Feature",
            "geometry": {
                "type": "Point",
                "coordinates": [
                    4.80813,
                    46.79397,
                    0
                ]
            },
            "properties": {
                "name": "[Tir] 71 Chatenoy-le-Royal (T.S.Chatenoy-le-Royal)"
            }
        },
        {
            "type": "Feature",
            "geometry": {
                "type": "Point",
                "coordinates": [
                    4.85426,
                    46.8057,
                    0
                ]
            },
            "properties": {
                "name": "[Tir] 71 Chalon sur Saône (Sté de Tie Chalon sur Saône)"
            }
        },